City_ID,City,Country,Latitude,Longitude,Max Temp,Humidity,Cloudiness,Wind Speed
0,Catamarca,AR,-28.47,-65.79,66.99,79,6,1.99
1,Hopelchen,MX,19.77,-89.85,86.0,74,20,11.41
2,Huilong,CN,31.81,121.66,64.99,94,100,7.0
3,Port alfred,ZA,-33.59,26.89,60.01,88,0,1.01
4,Pangnirtung,CA,66.15,-65.71,12.2,78,90,14.99
5,Katangli,RU,51.71,143.23,31.75,94,100,16.64
6,Cocal,BR,-28.62,-49.35,61.16,64,0,3.76
7,Alyangula,AU,-13.85,136.42,80.6,54,87,5.82
8,Katsina,NG,12.99,7.6,85.6,32,58,12.68
9,Saint-philippe,RE,-21.36,55.77,75.2,73,43,5.82
10,Sarangani,PH,5.4,125.46,83.95,71,0,2.75
11,Punta arenas,CL,-53.15,-70.92,37.4,86,0,8.05
12,Vaini,TO,-21.2,-175.2,82.4,74,40,5.82
13,Bredasdorp,ZA,-34.53,20.04,51.8,87,23,4.7
14,Teguldet,RU,57.31,88.17,37.65,87,100,13.33
15,Nome,US,64.5,-165.41,44.6,45,1,6.93
16,Noyabrsk,RU,63.2,75.45,23.45,89,0,9.4
17,Mataura,NZ,-46.19,168.86,43.56,87,82,9.15
18,Avarua,CK,-21.21,-159.78,80.6,83,7,5.82
19,Ushuaia,AR,-54.8,-68.3,44.6,81,0,26.4
20,Yar-sale,RU,66.83,70.83,14.56,91,67,8.32
21,Constitucion,CL,-35.33,-72.42,57.43,82,92,7.31
22,New norfolk,AU,-42.78,147.06,50.0,85,61,3.22
23,Kristiansund,NO,63.11,7.73,37.4,69,93,10.29
24,Aleksandrov gay,RU,50.15,48.57,60.71,52,21,12.37
25,Barrow,US,71.29,-156.79,10.4,85,1,12.75
26,Rikitea,PF,-23.12,-134.97,73.42,72,98,14.47
27,Ponta do sol,PT,32.67,-17.1,66.2,59,20,6.93
28,Saldanha,ZA,-33.01,17.94,53.6,87,57,3.36
29,Sinnamary,GF,5.38,-52.95,78.87,86,93,13.0
30,Kupang,ID,-10.17,123.58,80.6,78,20,12.75
31,Codrington,AU,-38.27,141.97,55.96,72,1,10.74
32,Acari,PE,-15.43,-74.62,72.72,57,82,3.42
33,Iquique,CL,-20.22,-70.14,66.2,68,70,13.87
34,Sitka,US,57.05,-135.33,55.4,43,40,10.29
35,Lavrentiya,RU,65.58,-171.0,32.23,92,0,4.94
36,Caceres,ES,39.52,-6.37,57.0,81,100,1.01
37,Port lincoln,AU,-34.73,135.87,61.07,45,42,15.88
38,Payakumbuh,ID,-0.22,100.63,71.96,73,100,1.77
39,Chokurdakh,RU,70.63,147.92,21.47,97,99,3.56
40,Berbera,SO,10.44,45.01,85.78,75,62,8.21
41,Qaanaaq,GL,77.48,-69.36,16.54,93,100,2.71
42,Necochea,AR,-38.55,-58.74,57.0,83,53,1.99
43,Yellowknife,CA,62.46,-114.35,39.2,51,20,9.17
44,Jamestown,US,42.1,-79.24,46.0,66,75,10.29
45,Bambous virieux,MU,-20.34,57.76,73.99,83,20,4.7
46,Djambala,CG,-2.54,14.75,71.82,69,79,3.15
47,Hobart,AU,-42.88,147.33,54.0,81,40,8.05
48,Busselton,AU,-33.65,115.33,57.99,74,99,15.75
49,Houston,US,29.76,-95.36,87.01,51,40,13.87
50,Butaritari,KI,3.07,172.79,82.87,81,94,15.57
51,Bluff,NZ,-46.6,168.33,45.95,71,77,20.78
52,Mahebourg,MU,-20.41,57.7,73.4,83,20,4.7
53,Clyde river,CA,70.47,-68.59,8.6,84,1,6.93
54,Vestmannaeyjar,IS,63.44,-20.27,45.88,82,34,24.49
55,Ballybofey,IE,54.8,-7.78,42.66,92,0,5.14
56,Marzuq,YE,14.4,46.47,76.06,42,100,7.87
57,Castro,BR,-24.79,-50.01,53.31,54,0,2.59
58,Port hedland,AU,-20.32,118.57,64.4,59,0,6.93
59,Norman wells,CA,65.28,-126.83,39.2,60,40,16.11
60,Gazojak,TM,41.19,61.4,63.25,58,27,3.6
61,Hofn,IS,64.25,-15.21,45.09,80,100,19.71
62,Albany,US,42.6,-73.97,50.0,54,66,1.99
63,Wawa,NG,9.9,4.42,81.52,62,11,11.01
64,Ilulissat,GL,69.22,-51.1,21.2,62,100,11.41
65,Carnarvon,AU,-24.87,113.63,62.6,100,90,4.7
66,Tuktoyaktuk,CA,69.45,-133.04,17.6,78,20,13.87
67,Hami,CN,42.8,93.45,68.85,23,98,7.14
68,Tiksi,RU,71.69,128.87,19.33,97,100,9.57
69,Babu,CN,24.42,111.52,81.75,75,17,4.27
70,Atuona,PF,-9.8,-139.03,81.91,69,0,17.07
71,Severo-kurilsk,RU,50.68,156.12,38.93,93,100,22.1
72,Tumaco,CO,1.8,-78.82,79.41,86,68,9.62
73,Albania,AL,41.0,20.0,50.0,87,0,3.36
74,Cherskiy,RU,68.75,161.3,28.98,96,100,3.42
75,Gigmoto,PH,13.78,124.39,84.65,77,54,10.02
76,Vila franca do campo,PT,37.72,-25.43,60.8,82,40,23.04
77,Urumqi,CN,43.8,87.6,59.0,62,77,2.24
78,Alice springs,AU,-23.7,133.88,50.0,43,0,3.36
79,Bhatkal,IN,13.97,74.57,80.29,84,44,7.23
80,Ulaangom,MN,49.98,92.07,46.47,36,0,12.77
81,Faya,SA,18.39,42.45,66.2,59,91,8.34
82,Puerto ayora,EC,-0.74,-90.35,80.6,78,75,11.41
83,Saint-pierre,RE,-21.34,55.48,75.2,73,3,5.82
84,Misratah,LY,32.38,15.09,65.07,84,11,3.06
85,Esperance,AU,-33.87,121.9,60.8,93,95,5.82
86,Hermanus,ZA,-34.42,19.23,59.0,81,36,4.0
87,Muscat,OM,23.61,58.59,96.8,30,9,9.17
88,Jiamusi,CN,46.83,130.35,52.32,43,100,5.32
89,Aklavik,CA,68.22,-135.01,35.6,40,20,6.93
90,Souillac,MU,-20.52,57.52,73.4,83,20,4.7
91,Te anau,NZ,-45.42,167.72,42.19,78,96,6.53
92,San cristobal,VE,7.77,-72.22,89.6,55,40,9.17
93,Hurghada,EG,27.26,33.81,78.8,25,0,9.17
94,Khatanga,RU,71.97,102.5,3.49,92,67,15.28
95,Tura,IN,25.52,90.22,72.66,71,0,4.85
96,Rawson,AR,-43.3,-65.1,51.98,68,98,20.15
97,Tezu,IN,27.92,96.17,72.95,62,6,2.62
98,Tomatlan,MX,19.93,-105.25,83.88,46,100,6.64
99,Rudnichnyy,RU,59.62,52.47,49.33,88,93,6.33
100,Ossora,RU,59.24,163.07,29.61,98,100,8.32
101,Skibbereen,IE,51.55,-9.27,51.8,71,20,19.46
102,Peterhead,GB,57.51,-1.8,41.0,86,75,1.12
103,Villaviciosa,ES,43.48,-5.44,59.0,82,76,4.7
104,Yining,CN,29.04,114.56,74.98,86,100,2.82
105,Qala,AZ,40.44,50.17,60.8,87,100,11.41
106,Muisne,EC,0.6,-80.03,80.6,94,75,5.82
107,Nikolskoye,RU,59.7,30.79,37.99,93,94,2.24
108,Boende,CD,-0.22,20.87,75.78,76,51,2.35
109,Huarmey,PE,-10.07,-78.15,69.01,82,43,10.22
110,Kharp,RU,66.8,65.81,20.8,96,100,3.98
111,Urusha,RU,54.05,122.9,48.6,38,6,3.31
112,Port blair,IN,11.67,92.75,83.75,75,100,6.53
113,Tungawan,PH,7.51,122.37,84.38,72,38,5.68
114,Oshkosh,US,44.02,-88.54,48.99,49,1,13.87
115,Hangu,CN,39.25,117.79,53.6,81,0,4.47
116,Kindersley,CA,51.47,-109.17,52.0,53,75,19.46
117,Vallenar,CL,-28.57,-70.76,60.01,60,0,1.66
118,Kodiak,US,57.79,-152.41,48.2,87,90,6.93
119,Jiaojiang,CN,28.68,121.44,72.0,90,88,3.62
120,Kilindoni,TZ,-7.91,39.67,81.43,78,7,18.68
121,Ribeira grande,PT,38.52,-28.7,61.16,77,63,23.98
122,Ondo,NG,7.1,4.83,74.59,89,59,1.59
123,Moose factory,CA,51.26,-80.61,24.8,58,1,8.05
124,Liuli,TZ,-11.08,34.63,73.4,61,62,4.36
125,Berlevag,NO,70.86,29.09,38.03,81,97,21.61
126,Kaitangata,NZ,-46.28,169.85,46.99,73,36,14.0
127,Longyearbyen,SJ,78.22,15.64,24.8,79,75,11.41
128,Dingle,PH,11.0,122.67,85.32,72,93,4.23
129,Ferrol,ES,43.48,-8.24,59.0,82,75,8.05
130,Siverek,TR,37.76,39.32,57.2,71,54,5.82
131,Buala,SB,-8.14,159.59,85.73,68,84,5.35
132,Kruisfontein,ZA,-34.0,24.73,57.92,67,10,7.11
133,Thinadhoo,MV,0.53,72.93,84.88,74,96,11.05
134,Balkanabat,TM,39.51,54.37,74.62,33,35,4.97
135,Vila velha,BR,-20.33,-40.29,73.4,78,30,3.36
136,Norton,ZW,-17.88,30.7,52.11,50,14,3.91
137,Lompoc,US,34.64,-120.46,70.0,43,1,17.22
138,Harper,LR,4.38,-7.72,80.51,83,92,3.94
139,Kapaa,US,22.08,-159.32,80.6,61,90,20.8
140,Sembakung,ID,3.82,117.25,76.57,97,81,3.02
141,Abu samrah,SY,35.3,37.18,59.56,64,78,0.29
142,Bone,DE,51.97,12.14,37.0,82,0,6.02
143,Aromashevo,RU,56.86,68.64,37.38,76,0,5.08
144,Jumla,NP,29.27,82.18,46.78,32,59,3.96
145,Garbolovo,RU,60.34,30.5,37.0,69,10,2.57
146,Fairbanks,US,64.84,-147.72,61.0,30,75,4.7
147,Havoysund,NO,71.0,24.66,35.6,79,75,28.86
148,Ahipara,NZ,-35.17,173.17,61.93,69,37,16.82
149,Usoke,TZ,-5.17,32.35,71.6,78,40,3.98
150,Carbonia,IT,39.17,8.52,63.0,87,40,3.36
151,Kumluca,TR,36.37,30.29,60.01,68,41,4.99
152,Velikiy ustyug,RU,60.76,46.31,53.24,92,94,5.95
153,Kurilsk,RU,45.23,147.88,39.29,91,100,20.54
154,Yulara,AU,-25.24,130.99,53.6,32,0,11.41
155,Geraldton,AU,-28.77,114.6,68.0,88,90,2.24
156,New glasgow,CA,45.58,-62.65,43.0,94,100,15.99
157,Mar del plata,AR,-38.0,-57.56,61.0,82,45,3.36
158,Lakes entrance,AU,-37.88,147.98,55.0,84,0,2.55
159,Cape town,ZA,-33.93,18.42,59.0,93,52,8.05
160,Hithadhoo,MV,-0.6,73.08,84.6,73,66,9.86
161,Kavieng,PG,-2.57,150.8,84.7,77,99,10.8
162,Rauma,FI,61.13,21.51,37.4,69,92,4.7
163,Adrar,MR,20.5,-10.07,89.08,10,0,8.34
164,Vilyuysk,RU,63.76,121.62,41.13,61,26,3.89
165,Akora,PK,34.0,72.13,64.4,77,40,4.7
166,Quatre cocos,MU,-20.21,57.76,73.99,83,20,4.7
167,Pasighat,IN,28.07,95.33,72.88,68,5,1.86
168,Envira,BR,-7.3,-70.22,74.89,87,64,1.86
169,Celestun,MX,20.87,-90.4,83.97,71,8,19.1
170,Flin flon,CA,54.77,-101.86,55.4,37,20,6.93
171,Ha tinh,VN,18.33,105.9,82.87,75,27,2.42
172,Zabaykalsk,RU,49.63,117.32,47.12,40,0,10.25
173,Novyy urengoy,RU,66.08,76.63,10.44,94,0,6.51
174,East london,ZA,-33.02,27.91,64.24,75,0,8.16
175,Newport,GB,51.59,-3.0,53.01,80,72,22.08
176,Beausejour,CA,50.06,-96.52,53.01,35,100,5.32
177,Bengkulu,ID,-3.8,102.27,76.96,84,99,4.68
178,Talnakh,RU,69.49,88.4,10.4,85,40,29.08
179,Date,JP,42.47,140.87,46.9,71,54,12.35
180,Pisco,PE,-13.7,-76.22,68.0,82,93,17.22
181,Dikson,RU,73.51,80.55,6.01,85,91,5.77
182,Merauke,ID,-8.47,140.33,81.54,85,99,13.8
183,Acarau,BR,-2.89,-40.12,78.37,89,98,18.68
184,Port hardy,CA,50.7,-127.42,53.6,58,90,24.16
185,Hilo,US,19.73,-155.09,82.4,54,1,11.41
186,Kazerun,IR,29.62,51.65,69.51,22,56,2.37
187,Raudeberg,NO,61.99,5.14,34.0,88,97,1.48
188,Asau,RO,46.43,26.4,48.99,86,99,3.62
189,Maniitsoq,GL,65.42,-52.9,26.83,90,95,9.42
190,Moyo,UG,3.66,31.72,70.12,68,100,1.41
191,Baykit,RU,61.67,96.37,39.88,80,100,7.45
192,Provideniya,RU,64.38,-173.3,38.25,63,16,1.1
193,Ayolas,PY,-27.4,-56.9,68.77,73,22,4.5
194,Srednekolymsk,RU,67.45,153.68,28.85,98,98,8.08
195,Marystown,CA,47.17,-55.15,36.86,81,54,3.49
196,Anadyr,RU,64.75,177.48,21.2,85,20,11.18
197,Smithers,CA,54.78,-127.17,59.0,26,40,10.29
198,Saint-augustin,CA,51.23,-58.65,34.16,88,29,5.7
199,Krasnoselkup,RU,65.7,82.47,14.94,94,50,15.73
200,Saskylakh,RU,71.92,114.08,8.13,94,100,12.55
201,Mantes-la-ville,FR,48.97,1.7,54.0,80,92,5.99
202,Sakakah,SA,29.97,40.21,80.6,14,92,6.93
203,Pervomaysk,UA,48.04,30.85,54.07,90,87,6.82
204,Kondinskoye,RU,59.65,67.41,37.9,74,32,5.64
205,Norsup,VU,-16.07,167.38,83.01,68,55,5.66
206,Bethel,US,41.37,-73.41,53.6,46,90,13.87
207,Krasnoborsk,RU,61.56,45.93,50.14,95,100,1.05
208,Sorong,ID,-0.88,131.25,83.46,75,100,8.28
209,Kieta,PG,-6.22,155.63,83.66,70,89,4.59
210,Georgetown,MY,5.41,100.34,80.6,100,20,3.36
211,Mitsamiouli,KM,-11.38,43.28,81.36,78,60,10.25
212,Kahului,US,20.89,-156.47,84.2,58,40,27.51
213,Faanui,PF,-16.48,-151.75,82.11,77,7,10.94
214,Lagoa formosa,BR,-18.78,-46.41,68.0,52,21,2.91
215,Namtsy,RU,62.72,129.67,41.0,32,0,2.24
216,Barranca,PE,-10.75,-77.77,66.6,87,48,7.92
217,Mpika,ZM,-11.83,31.45,56.75,47,23,6.91
218,Thompson,CA,55.74,-97.86,50.0,31,75,6.93
219,Nurobod,UZ,40.91,69.8,60.8,87,89,4.7
220,Naze,JP,28.37,129.48,75.2,88,75,3.36
221,Victoria,HK,22.29,114.16,82.0,74,28,11.01
222,San patricio,MX,19.22,-104.7,80.6,78,75,9.17
223,Coihaique,CL,-45.58,-72.07,44.6,87,40,1.12
224,Santa cruz de la palma,ES,28.68,-17.76,68.0,60,98,8.05
225,Filingue,NE,14.35,3.32,88.92,32,11,8.99
226,Yumen,CN,40.28,97.2,60.91,18,100,7.56
227,Tasiilaq,GL,65.61,-37.64,39.2,44,0,10.29
228,Hualmay,PE,-11.1,-77.61,68.32,81,52,10.11
229,Arraial do cabo,BR,-22.97,-42.03,72.43,71,8,10.54
230,Ugoofaaru,MV,5.67,73.0,84.7,79,100,11.7
231,Torbay,CA,47.67,-52.73,37.99,88,75,5.82
232,Dandong,CN,40.13,124.39,60.94,44,4,1.57
233,Ukiah,US,39.15,-123.21,80.6,21,1,12.75
234,Mahibadhoo,MV,3.78,72.97,84.36,76,43,13.82
235,Monte aprazivel,BR,-20.77,-49.71,64.94,61,0,5.7
236,Houma,US,29.6,-90.72,81.0,65,1,9.17
237,Cidreira,BR,-30.18,-50.21,67.42,73,40,10.83
238,Akyab,MM,20.15,92.9,79.84,80,51,5.17
239,Ranong,TH,9.97,98.63,77.0,100,20,0.4
240,Chuy,UY,-33.7,-53.46,57.22,95,99,2.84
241,Primorsko,BG,42.27,27.77,57.2,82,40,6.93
242,Thunder bay,CA,48.4,-89.32,44.6,28,40,10.29
243,Chifeng,CN,42.27,118.96,59.72,26,31,12.44
244,Bonthe,SL,7.53,-12.51,80.35,84,88,3.36
245,Fukue,JP,32.69,128.84,64.4,93,75,3.36
246,Frontera,MX,26.93,-101.45,100.99,12,16,4.0
247,Katsuura,JP,35.13,140.3,69.01,93,75,4.7
248,Waipawa,NZ,-41.41,175.52,53.01,87,93,16.11
249,Sao jose da coroa grande,BR,-8.9,-35.15,78.53,78,44,7.18
250,Gizo,SB,-8.1,156.84,84.74,71,54,9.4
251,Saint pete beach,US,27.73,-82.74,82.0,54,1,6.93
252,Celina,US,40.55,-84.57,60.01,50,78,1.99
253,Sanmenxia,CN,34.77,111.18,62.55,50,81,6.2
254,Chara,RU,56.91,118.26,39.72,47,0,2.21
255,Airai,TL,-8.93,125.41,66.24,58,100,4.34
256,Boca do acre,BR,-8.75,-67.4,75.96,91,75,1.7
257,Isla mujeres,MX,21.23,-86.73,84.2,70,75,11.41
258,Kenora,CA,49.82,-94.43,48.2,36,75,5.82
259,Singkang,MY,2.1,102.8,78.8,88,20,1.12
260,Kalmunai,LK,7.42,81.82,80.85,79,100,1.83
261,Sept-iles,CA,50.2,-66.38,39.2,80,90,5.82
262,Leningradskiy,RU,69.38,178.42,23.58,89,0,3.76
263,Fiche,ET,9.8,38.73,53.76,35,13,1.88
264,Gari,RU,59.43,62.35,41.04,79,39,7.63
265,Hasaki,JP,35.73,140.83,70.0,100,75,4.7
266,Honningsvag,NO,70.98,25.97,37.99,80,57,25.97
267,Lac du bonnet,CA,50.25,-96.06,53.01,35,100,5.48
268,Lagoa,PT,39.05,-27.98,60.66,79,43,25.37
269,Los llanos de aridane,ES,28.66,-17.92,68.0,60,93,8.05
270,Sepuka,TZ,-4.75,34.53,61.92,61,2,8.75
271,Bilibino,RU,68.05,166.44,21.42,86,0,1.57
272,Tuatapere,NZ,-46.13,167.68,44.51,78,98,13.58
273,Samarai,PG,-10.62,150.67,79.75,86,100,17.29
274,Mmabatho,ZA,-25.85,25.63,50.0,71,24,5.82
275,Cockburn town,TC,21.46,-71.14,80.06,76,70,10.94
276,Kidal,ML,18.44,1.41,85.24,26,42,7.94
277,Husavik,IS,66.04,-17.34,50.0,67,40,41.38
278,Myitkyina,MM,25.38,97.4,71.73,88,1,2.68
279,Caravelas,BR,-17.71,-39.25,72.32,77,10,5.55
280,Saint george,US,37.1,-113.58,84.0,13,1,4.7
281,Upernavik,GL,72.79,-56.15,21.24,95,100,18.81
282,Iracoubo,GF,5.48,-53.2,78.78,85,93,13.11
283,Isangel,VU,-19.55,169.27,81.52,69,97,4.56
284,Tiarei,PF,-17.53,-149.33,87.8,66,6,4.7
285,Nagda,IN,23.45,75.42,77.76,36,3,8.34
286,Castel san giovanni,IT,45.06,9.43,60.01,54,9,3.18
287,Meulaboh,ID,4.14,96.13,77.25,82,100,3.31
288,Tuy hoa,VN,13.08,109.3,78.94,79,0,3.29
289,Gat,IL,31.61,34.76,64.4,63,0,2.24
290,Pevek,RU,69.7,170.31,17.96,95,92,5.37
291,Iqaluit,CA,63.75,-68.51,15.8,66,90,2.24
292,Basoko,CD,1.24,23.62,76.05,71,53,0.76
293,Znamenskoye,RU,57.13,73.83,33.1,87,63,5.21
294,Sibolga,ID,1.74,98.78,77.97,79,69,3.53
295,Hastings,GB,50.86,0.57,46.99,84,57,5.99
296,Port elizabeth,ZA,-33.92,25.57,57.2,87,6,5.82
297,Zhuhai,CN,22.28,113.57,82.4,88,40,10.29
298,Longonjo,AO,-12.91,15.25,61.03,44,21,3.53
299,Fortuna,US,40.6,-124.16,63.0,45,40,16.11
300,Ketchikan,US,55.34,-131.65,57.2,41,20,16.11
301,Sorland,NO,67.67,12.69,38.32,86,100,19.55
302,Svobodnyy,RU,51.4,128.13,46.76,47,69,8.52
303,Radhanpur,IN,23.83,71.6,83.41,67,0,11.3
304,Sangmelima,CM,2.93,11.98,68.34,80,99,2.51
305,Porto walter,BR,-8.27,-72.74,74.16,86,45,1.88
306,Lebu,CL,-37.62,-73.65,57.34,90,70,7.78
307,Henties bay,NA,-22.12,14.28,64.31,61,0,6.96
308,Nortelandia,BR,-14.45,-56.8,75.36,63,56,2.59
309,Sao filipe,CV,14.9,-24.5,76.89,65,43,11.03
310,Atasu,KZ,48.68,71.64,38.98,59,0,8.99
311,Brae,GB,60.4,-1.35,41.0,75,89,10.29
312,Pinerolo,IT,44.88,7.35,61.0,73,13,3.0
313,Camocim,BR,-2.9,-40.84,78.39,88,100,15.28
314,Rondonopolis,BR,-16.47,-54.64,72.01,61,16,2.28
315,Mastung,PK,29.8,66.84,63.32,23,0,4.27
316,Jiayuguan,CN,39.82,98.3,62.83,23,56,1.05
317,Majene,ID,-3.54,118.97,82.11,80,80,7.47
318,Luebo,CD,-5.35,21.42,72.1,75,2,2.13
319,Westport,US,41.14,-73.36,57.2,47,90,17.22
320,Hammerfest,NO,70.66,23.68,35.6,83,75,28.86
321,Olafsvik,IS,64.89,-23.71,43.11,78,96,26.64
322,Nuqui,CO,5.71,-77.27,79.99,84,97,4.07
323,Terra santa,BR,-2.1,-56.49,77.5,93,78,2.53
324,Sabang,ID,5.89,95.32,83.62,74,66,10.74
325,Elk city,US,35.41,-99.4,86.0,42,1,17.22
326,Ngorongoro,TZ,-3.24,35.49,53.26,55,75,6.08
327,Moncton,CA,46.12,-64.8,48.99,100,90,8.05
328,Hamilton,US,39.18,-84.53,64.4,48,1,5.82
329,Puerto carreno,CO,6.19,-67.49,82.4,78,75,9.17
330,Grand gaube,MU,-20.01,57.66,73.99,78,6,1.99
331,Vaitape,PF,-16.52,-151.75,82.94,77,6,10.98
332,Farafangana,MG,-22.82,47.83,70.61,89,42,8.08
333,Lethem,GY,3.38,-59.8,81.41,73,88,9.91
334,Bafia,CM,4.75,11.23,70.45,81,99,2.42
335,Sa kaeo,TH,13.81,102.07,81.91,72,23,5.17
336,Nicolas ruiz,MX,16.4,-92.53,93.2,41,75,20.8
337,Vardo,NO,70.37,31.11,38.26,84,100,18.72
338,Cagua,VE,10.19,-67.46,81.03,53,92,1.86
339,Qandala,SO,11.47,49.87,86.86,66,100,7.7
340,Port-gentil,GA,-0.72,8.78,82.11,81,86,8.81
341,Launceston,AU,-41.45,147.17,51.01,93,90,4.0
342,Lamu,KE,-2.27,40.9,79.95,85,97,13.91
343,Kurchum,KZ,48.57,83.65,42.15,54,0,11.56
344,Kappeln,DE,54.66,9.93,42.8,86,0,8.05
345,Parrita,CR,9.52,-84.32,77.0,69,75,18.34
346,Kikwit,CD,-5.04,18.82,72.45,79,46,2.06
347,Matara,LK,5.95,80.54,79.79,87,100,5.28
348,Hamadan,IR,34.8,48.51,55.31,25,43,7.61
349,Old shinyanga,TZ,-3.55,33.4,66.52,64,95,5.57
350,Lokosovo,RU,61.13,74.82,29.1,92,3,7.16
351,Sabzevar,IR,36.21,57.68,65.75,35,0,3.04
352,Buraydah,SA,26.33,43.98,80.6,47,75,17.22
353,College,US,64.86,-147.8,61.0,30,75,4.7
354,Lorengau,PG,-2.02,147.27,83.64,78,97,5.23
355,Saint-louis,SN,16.33,-15.0,86.74,21,24,15.05
356,Bubaque,GW,11.28,-15.83,78.17,77,24,16.44
357,Mount gambier,AU,-37.83,140.77,48.2,93,1,10.29
358,High level,CA,58.52,-117.14,68.0,35,40,10.29
359,Russell,US,32.35,-85.2,86.0,48,75,4.7
360,Ngunguru,NZ,-35.62,174.5,63.0,65,6,8.99
361,Orje,NO,59.48,11.66,41.0,56,3,10.29
362,Omutninsk,RU,58.67,52.19,49.75,84,92,6.02
363,Sao domingos,BR,-13.4,-46.32,70.29,62,6,5.17
364,Preobrazheniye,RU,42.9,133.91,52.92,43,0,6.13
365,Soyo,AO,-6.13,12.37,78.57,89,95,4.43
366,Terme,TR,41.21,36.97,55.4,93,75,1.12
367,Gawler,AU,-34.6,138.73,59.0,66,0,5.99
368,Nago,JP,26.59,127.98,77.0,94,75,8.05
369,San policarpo,PH,12.18,125.51,83.23,83,100,9.44
370,Vangaindrano,MG,-23.35,47.6,69.64,91,37,6.2
371,Inyonga,TZ,-6.72,32.07,62.92,65,40,3.67
372,Verkhnyaya inta,RU,65.98,60.31,38.41,93,100,11.07
373,Tolaga bay,NZ,-38.37,178.3,62.65,52,1,12.62
374,Mongoumba,CF,3.64,18.59,72.82,85,59,2.42
375,Miguel auza,MX,24.29,-103.45,72.88,25,61,14.47
376,Iisalmi,FI,63.56,27.19,35.6,80,0,1.12
377,Labuan,MY,5.28,115.24,78.8,100,75,12.01
378,Kuminskiy,RU,58.67,66.57,36.18,79,0,4.5
379,Methuen,US,42.73,-71.19,55.99,52,44,5.01
380,Kavaratti,IN,10.57,72.64,85.66,81,44,14.03
381,Belaya gora,RU,68.53,146.42,24.01,96,95,2.53
382,Ahuimanu,US,21.44,-157.84,84.2,51,20,13.87
383,Warmbad,NA,-28.45,18.73,63.0,22,0,3.42
384,Bure,ET,10.7,37.07,68.67,25,87,0.98
385,Dunedin,NZ,-45.87,170.5,52.0,68,53,3.0
386,Teguise,ES,29.06,-13.56,68.0,72,20,10.29
387,Kerema,PG,-7.96,145.78,81.59,80,90,1.68
388,Benjamin constant,BR,-4.38,-70.03,75.2,88,75,4.7
389,Sabya,SA,17.15,42.63,86.0,66,40,3.29
390,Muros,ES,42.78,-9.06,60.01,82,37,17.0
391,Sao felix do xingu,BR,-6.64,-51.99,74.25,88,44,1.88
392,Moen,NO,69.13,18.61,33.8,80,100,12.75
393,Kirakira,SB,-10.45,161.92,85.06,70,38,6.51
394,Inongo,CD,-1.95,18.27,74.39,78,53,3.31
395,Shimoda,JP,34.67,138.95,73.99,88,75,2.24
396,Bardiyah,LY,31.76,25.09,62.29,71,0,20.78
397,Port macquarie,AU,-31.43,152.92,66.0,74,21,3.0
398,Airdrie,GB,55.87,-3.98,43.0,81,3,4.14
399,Tiznit,MA,29.58,-9.5,63.27,58,2,3.78
400,Aleppo,SY,36.25,37.5,58.73,72,55,4.47
401,Xixiang,CN,35.16,112.86,66.0,99,65,3.85
402,Korla,CN,41.76,86.15,68.81,26,100,6.67
403,Karpogory,RU,64.0,44.45,37.33,93,4,3.22
404,Cullman,US,34.17,-86.84,82.0,57,40,4.7
405,Tautira,PF,-17.73,-149.15,87.8,66,34,4.7
406,Luderitz,NA,-26.65,15.16,68.63,39,0,12.88
407,Daru,PG,-9.08,143.21,80.49,85,100,17.43
408,New rochelle,US,40.91,-73.78,57.2,44,40,23.04
409,Narsaq,GL,60.92,-46.05,41.0,56,99,1.12
410,Guerrero negro,MX,27.98,-114.06,68.83,68,0,21.77
411,Okato,NZ,-39.2,173.88,50.0,95,72,3.0
412,Komsomolskiy,UZ,40.43,71.72,62.6,59,97,2.26
413,Wajid,SO,3.81,43.25,76.98,70,100,10.27
414,Vao,NC,-22.67,167.48,72.41,76,100,20.67
415,San rafael,AR,-34.62,-68.33,64.47,45,33,5.75
416,Seoul,KR,37.57,126.98,62.6,67,75,2.89
417,Sandovo,RU,58.46,36.41,50.13,92,99,2.55
418,Romitan,UZ,39.93,64.38,59.0,100,100,4.7
419,Sao joao da barra,BR,-21.64,-41.05,71.26,73,22,5.84
420,Alofi,NU,-19.06,-169.92,84.2,74,40,4.7
421,Noumea,NC,-22.28,166.46,75.99,88,90,18.34
422,Tocopilla,CL,-22.09,-70.2,63.7,63,31,7.87
423,Port hawkesbury,CA,45.62,-61.35,39.0,100,90,16.11
424,Davila,PH,18.47,120.58,82.4,83,20,2.24
425,Micheweni,TZ,-4.97,39.83,79.84,83,28,12.91
426,Erdemli,TR,36.6,34.31,61.54,73,4,8.08
427,Si satchanalai,TH,17.52,99.76,87.01,78,20,2.24
428,Mabaruma,GY,8.2,-59.78,76.15,85,100,4.54
429,Belgorod,RU,50.61,36.58,57.2,87,29,4.47
430,Gushi,CN,34.64,109.58,64.0,56,26,6.15
431,Seddon,AU,-37.81,144.89,55.0,93,0,9.17
432,Montenegro,ME,42.5,19.3,51.8,81,0,4.7
433,Yopal,CO,5.34,-72.4,75.24,78,71,1.28
434,Lasa,IT,46.62,10.7,46.4,81,40,4.9
435,Mackay,AU,-21.15,149.2,71.6,68,90,17.22
436,Oda,JP,35.18,132.5,60.8,82,75,17.22
437,Paita,PE,-5.09,-81.11,72.27,75,37,14.05
438,Bealanana,MG,-14.55,48.73,56.28,66,20,3.24
439,Santo stino di livenza,IT,45.73,12.68,55.0,83,82,3.58
440,Sambava,MG,-14.27,50.17,72.95,76,1,6.17
441,Aksarka,RU,66.56,67.8,20.19,95,100,9.37
442,Qasigiannguit,GL,68.82,-51.19,21.2,62,100,11.41
443,Ambon,ID,-3.7,128.18,78.8,94,20,4.7
444,Vanimo,PG,-2.67,141.3,84.69,68,100,6.67
445,Yzeure,FR,46.56,3.35,62.6,67,73,8.05
446,Saint-joseph,RE,-21.37,55.62,75.2,69,22,8.05
447,Biltine,TD,14.53,20.92,85.95,12,98,9.01
448,Saquarema,BR,-22.92,-42.51,71.6,78,7,3.36
449,Padang,ID,-0.95,100.35,80.2,72,50,4.23
450,Ferkessedougou,CI,9.6,-5.2,77.92,65,46,1.81
451,Pemba,MZ,-12.97,40.52,74.64,85,7,15.9
452,Goderich,CA,43.75,-81.72,42.01,78,0,3.0
453,Deputatskiy,RU,69.3,139.9,16.18,91,99,2.44
454,Shache,CN,38.42,77.24,63.16,18,3,5.28
455,Havre-saint-pierre,CA,50.23,-63.6,39.2,93,90,4.7
456,Biak,ID,-0.91,122.88,81.12,76,100,5.06
457,Sisophon,KH,13.59,102.97,82.89,72,77,7.58
458,Kununurra,AU,-15.77,128.73,71.6,35,84,4.7
459,West wendover,US,40.74,-114.07,66.2,19,1,10.29
460,Romilly-sur-seine,FR,48.51,3.73,55.4,76,68,11.41
461,Evensk,RU,61.95,159.23,29.16,92,100,9.01
462,Jacareacanga,BR,-6.22,-57.75,76.69,86,86,1.3
463,Kindu,CD,-2.95,25.95,72.21,78,88,2.39
464,Muromtsevo,RU,56.37,75.24,33.35,86,16,6.62
465,Haverfordwest,GB,51.8,-4.97,57.0,71,71,14.99
466,Dawlatabad,AF,36.41,64.91,67.39,48,0,3.0
467,Kumukh,RU,42.17,47.12,48.27,38,86,8.3
468,Auki,SB,-8.77,160.7,87.46,62,88,2.68
469,Bathsheba,BB,13.22,-59.52,80.6,74,20,18.34
470,Kulhudhuffushi,MV,6.62,73.07,85.55,79,100,13.49
471,Oksfjord,NO,70.24,22.35,35.6,93,89,3.36
472,Kinsale,IE,51.71,-8.53,53.01,71,20,19.46
473,Marrakesh,MA,31.63,-8.01,68.0,64,9,5.82
474,Goba,ET,7.02,39.98,48.87,37,99,4.52
475,Tchibanga,GA,-2.85,11.03,73.49,92,100,1.57
476,Ponta delgada,PT,37.73,-25.67,60.8,82,40,23.04
477,Abu kamal,SY,34.45,40.92,71.85,42,61,1.1
478,Kudahuvadhoo,MV,2.67,72.89,84.0,79,100,16.8
479,Akoupe,CI,6.39,-3.9,74.68,93,65,1.9
480,Penzance,GB,50.12,-5.54,54.0,76,75,39.15
481,Kashi,CN,39.45,75.98,60.8,48,10,8.95
482,Sinjar,IQ,36.32,41.88,64.69,47,99,8.48
483,El paso,US,31.76,-106.49,95.0,8,1,13.87
484,Zhigalovo,RU,54.81,105.16,46.15,46,100,4.41
485,Cairns,AU,-16.92,145.77,77.0,61,30,11.41
486,Dongling,CN,41.81,123.58,51.8,71,1,4.47
487,Hirado,JP,33.36,129.55,66.99,93,75,4.7
488,Port augusta,AU,-32.5,137.77,53.01,87,0,6.93
489,Valencia,ES,39.33,-0.83,66.0,93,31,4.7
490,Kendari,ID,-3.94,122.5,80.19,83,94,1.25
491,Katherine,AU,-14.47,132.27,73.4,28,98,10.29
492,Taltal,CL,-25.4,-70.48,58.86,79,29,3.67
493,Lufilufi,WS,-13.87,-171.6,82.0,83,51,4.0
494,Rabat,MA,33.99,-6.84,64.99,93,20,5.82
495,Comodoro rivadavia,AR,-45.87,-67.5,48.2,81,40,9.17
496,Pathein,MM,16.78,94.73,82.49,75,50,7.27
497,Argalasti,GR,39.23,23.22,53.01,62,20,6.93
498,Cabedelo,BR,-6.98,-34.83,78.8,88,20,5.82
499,Pundaguitan,PH,6.37,126.17,83.44,76,17,3.27
500,Dinar,TR,38.06,30.17,48.2,93,75,0.38
501,Palembang,ID,-2.92,104.75,78.8,94,20,4.7
